{
  "meta": {
    "coordinate_status": "庐山点位复用东线住宿地图；武功山点位仅为游客中心区域级参考，预订和导航前需要人工确认。"
  },
  "lodging_locations": [
    {
      "city": "庐山",
      "name": "漫步时光二部民宿",
      "area": "牯岭镇",
      "address": "江西·九江·庐山市·牯岭镇大林路55号",
      "lat": 29.572433,
      "lng": 115.9754013,
      "coordinate_status": "沿用东线区域级参考"
    },
    {
      "city": "庐山",
      "name": "麗枫酒店（牯岭街鑫缔店）",
      "area": "牯岭街",
      "address": "江西·九江·庐山市·环山路1号",
      "lat": 29.571633,
      "lng": 115.9782013,
      "coordinate_status": "沿用东线区域级参考"
    },
    {
      "city": "庐山",
      "name": "白玉兰商务酒店（牯岭街店）",
      "area": "牯岭街",
      "address": "江西·九江·庐山市·庐山风景名胜区河西路4号",
      "lat": 29.570833,
      "lng": 115.9770013,
      "coordinate_status": "沿用东线区域级参考"
    },
    {
      "city": "庐山",
      "name": "山月·Moon美学度假美宿",
      "area": "牯岭镇",
      "address": "江西·九江·庐山市·牯岭镇慧远路102号",
      "lat": 29.573033,
      "lng": 115.9792013,
      "coordinate_status": "沿用东线区域级参考"
    },
    {
      "city": "武功山",
      "name": "萍乡武功山开元名庭度假酒店",
      "area": "武功山景区周边",
      "address": "具体门牌待确认",
      "lat": 27.4819,
      "lng": 114.1295,
      "coordinate_status": "游客中心区域级参考，非酒店精确位置"
    },
    {
      "city": "武功山",
      "name": "麗枫酒店（萍乡武功山游客中心店）",
      "area": "武功山游客中心",
      "address": "具体门牌待确认",
      "lat": 27.4789,
      "lng": 114.1325,
      "coordinate_status": "游客中心区域级参考，非酒店精确位置"
    },
    {
      "city": "武功山",
      "name": "维也纳国际酒店（萍乡武功山游客中心店）",
      "area": "武功山游客中心",
      "address": "具体门牌待确认",
      "lat": 27.4759,
      "lng": 114.1265,
      "coordinate_status": "游客中心区域级参考，非酒店精确位置"
    }
  ]
}
